[
  {
    "rank": 1,
    "name": "노원 스파",
    "win_count": 48,
    "address": "서울 노원구 동일로 1493 주공10단지종합상가",
    "lat": 37.6726237,
    "lng": 127.0549606
  },
  {
    "rank": 2,
    "name": "잠실매점",
    "win_count": 20,
    "address": "서울 송파구 올림픽로 269 잠실역 8번출구 앞",
    "lat": 37.5107334,
    "lng": 127.0710581
  },
  {
    "rank": 3,
    "name": "오케이상사",
    "win_count": 16,
    "address": "서울 서초구 신반포로 176 센트럴시티",
    "lat": 37.5041078,
    "lng": 127.0040297
  },
  {
    "rank": 4,
    "name": "제이복권방",
    "win_count": 16,
    "address": "서울 종로구 종로 225-1 평창빌딩 1층",
    "lat": 37.5707435,
    "lng": 126.9990378
  },
  {
    "rank": 5,
    "name": "대박복권",
    "win_count": 12,
    "address": "대전 서구 대덕대로 179",
    "lat": 36.3341722,
    "lng": 127.3719437
  },
  {
    "rank": 6,
    "name": "행운의집",
    "win_count": 10,
    "address": "부산 부산진구 부전로 30",
    "lat": 35.164074,
    "lng": 129.0620449
  },
  {
    "rank": 7,
    "name": "명품복권방",
    "win_count": 9,
    "address": "서울 강남구 테헤란로 111",
    "lat": 37.5055626,
    "lng": 127.0528631
  },
  {
    "rank": 8,
    "name": "럭키복권",
    "win_count": 8,
    "address": "경기 수원시 팔달구 인계로 166",
    "lat": 37.2702149,
    "lng": 127.0199488
  },
  {
    "rank": 9,
    "name": "대성로또방",
    "win_count": 7,
    "address": "인천 남동구 구월로 120",
    "lat": 37.4567698,
    "lng": 126.7048303
  },
  {
    "rank": 10,
    "name": "복권명당인주점",
    "win_count": 5,
    "address": "충남 아산시 인주면 인주로 52",
    "lat": 36.8490281,
    "lng": 126.8918328
  },
  {
    "rank": 11,
    "name": "한양로또방",
    "win_count": 5,
    "address": "서울 성동구 왕십리로 125",
    "lat": 37.5560337,
    "lng": 127.043414
  },
  {
    "rank": 12,
    "name": "복권나라",
    "win_count": 5,
    "address": "경기 안산시 단원구 중앙대로 762",
    "lat": 37.3343593,
    "lng": 126.763683
  },
  {
    "rank": 13,
    "name": "로또명당",
    "win_count": 5,
    "address": "대구 중구 국채보상로 548",
    "lat": 35.87029,
    "lng": 128.5929148
  },
  {
    "rank": 14,
    "name": "행복한로또",
    "win_count": 4,
    "address": "광주 서구 상무중앙로 34",
    "lat": 35.1499635,
    "lng": 126.8488346
  },
  {
    "rank": 15,
    "name": "만수르복권",
    "win_count": 4,
    "address": "경기 성남시 분당구 판교역로 146",
    "lat": 37.3992504,
    "lng": 127.1096832
  },
  {
    "rank": 16,
    "name": "로또앤복권",
    "win_count": 4,
    "address": "서울 마포구 월드컵로 212",
    "lat": 37.5663245,
    "lng": 126.901491
  },
  {
    "rank": 17,
    "name": "대박로또마트",
    "win_count": 4,
    "address": "울산 남구 돋질로 230",
    "lat": 35.5422948,
    "lng": 129.3538238
  },
  {
    "rank": 18,
    "name": "황금복권",
    "win_count": 4,
    "address": "경기 고양시 일산서구 중앙로 1414",
    "lat": 37.6695426,
    "lng": 126.7632369
  },
  {
    "rank": 19,
    "name": "행운복권방",
    "win_count": 3,
    "address": "부산 해운대구 해운대로 177",
    "lat": 35.165031,
    "lng": 129.1613612
  },
  {
    "rank": 20,
    "name": "엄마복권방",
    "win_count": 3,
    "address": "경기 화성시 동탄대로 632",
    "lat": 37.1639616,
    "lng": 127.1065274
  },
  {
    "rank": 21,
    "name": "월드컵로또",
    "win_count": 3,
    "address": "서울 영등포구 여의대방로 376",
    "lat": 37.5182489,
    "lng": 126.931287
  },
  {
    "rank": 22,
    "name": "꿈의복권",
    "win_count": 3,
    "address": "경기 안양시 동안구 시민대로 230",
    "lat": 37.3923318,
    "lng": 126.9565123
  },
  {
    "rank": 23,
    "name": "뉴빅마트",
    "win_count": 3,
    "address": "부산 기장군 기장읍 차성로 228",
    "lat": 35.2512442,
    "lng": 129.2139316
  },
  {
    "rank": 24,
    "name": "대길로또",
    "win_count": 3,
    "address": "경기 평택시 평택로 77",
    "lat": 36.9920497,
    "lng": 127.0864489
  },
  {
    "rank": 25,
    "name": "행운뱅크",
    "win_count": 3,
    "address": "서울 구로구 디지털로 306",
    "lat": 37.4828967,
    "lng": 126.8940058
  },
  {
    "rank": 26,
    "name": "복권천국",
    "win_count": 3,
    "address": "인천 서구 청라라임로 67",
    "lat": 37.5301542,
    "lng": 126.6532892
  },
  {
    "rank": 27,
    "name": "장미복권",
    "win_count": 3,
    "address": "충북 청주시 상당구 상당로 77",
    "lat": 36.6342555,
    "lng": 127.4906204
  },
  {
    "rank": 28,
    "name": "동해마트",
    "win_count": 3,
    "address": "부산 동래구 사직북로57번길 58",
    "lat": 35.183234294685285,
    "lng": 129.07695828754035
  },
  {
    "rank": 29,
    "name": "세종로또",
    "win_count": 3,
    "address": "세종 조치원읍 조치원로 78",
    "lat": 36.6011915,
    "lng": 127.2968422
  },
  {
    "rank": 30,
    "name": "명당복권방",
    "win_count": 3,
    "address": "경남 창원시 의창구 중앙대로 222",
    "lat": 35.462364231525754,
    "lng": 128.22431818267756
  },
  {
    "rank": 31,
    "name": "로또천하",
    "win_count": 2,
    "address": "전북 전주시 완산구 홍산로 260",
    "lat": 35.8317255,
    "lng": 127.1062985
  },
  {
    "rank": 32,
    "name": "보배로또",
    "win_count": 2,
    "address": "경기 용인시 기흥구 중부대로 184",
    "lat": 37.272086,
    "lng": 127.1252528
  },
  {
    "rank": 33,
    "name": "해피복권",
    "win_count": 2,
    "address": "경기 파주시 문산읍 문산로 50",
    "lat": 37.416007059188715,
    "lng": 127.52896076154391
  },
  {
    "rank": 34,
    "name": "스타복권",
    "win_count": 2,
    "address": "경기 김포시 김포한강로 10",
    "lat": 37.6516932,
    "lng": 126.6971896
  },
  {
    "rank": 35,
    "name": "금복로또",
    "win_count": 2,
    "address": "강원 원주시 원일로 80",
    "lat": 37.3601592,
    "lng": 127.9406579
  },
  {
    "rank": 36,
    "name": "로또월드",
    "win_count": 2,
    "address": "전남 순천시 팔마로 40",
    "lat": 34.9471341,
    "lng": 127.4897576
  },
  {
    "rank": 37,
    "name": "파워로또",
    "win_count": 2,
    "address": "경북 포항시 남구 포항로 56",
    "lat": 36.47742329053046,
    "lng": 128.89566278534346
  },
  {
    "rank": 38,
    "name": "행운맨복권",
    "win_count": 2,
    "address": "서울 관악구 관악로 160",
    "lat": 37.4734843,
    "lng": 126.9530468
  },
  {
    "rank": 39,
    "name": "제주복권나라",
    "win_count": 2,
    "address": "제주 제주시 관덕로 8",
    "lat": 33.5128486,
    "lng": 126.5200816
  },
  {
    "rank": 40,
    "name": "대구행운방",
    "win_count": 2,
    "address": "대구 달서구 달구벌대로 1718",
    "lat": 35.8587253,
    "lng": 128.5603827
  },
  {
    "rank": 41,
    "name": "용산복권방",
    "win_count": 2,
    "address": "서울 용산구 한강대로 305",
    "lat": 37.5454251,
    "lng": 126.9716081
  },
  {
    "rank": 42,
    "name": "일산로또마트",
    "win_count": 2,
    "address": "경기 고양시 일산동구 정발산로 24",
    "lat": 37.6638103,
    "lng": 126.7867275
  },
  {
    "rank": 43,
    "name": "행복마트",
    "win_count": 2,
    "address": "충남 천안시 서북구 쌍용대로 137",
    "lat": 36.8198592,
    "lng": 127.1358864
  },
  {
    "rank": 44,
    "name": "부천복권",
    "win_count": 2,
    "address": "경기 부천시 길주로 1",
    "lat": 37.5064214,
    "lng": 126.7464832
  },
  {
    "rank": 45,
    "name": "광주명당로또",
    "win_count": 2,
    "address": "광주 북구 용봉로 20",
    "lat": 35.1716517,
    "lng": 126.9009102
  },
  {
    "rank": 46,
    "name": "노다지복권방",
    "win_count": 2,
    "address": "경기 시흥시 복지로 103",
    "lat": 37.4481183,
    "lng": 126.7920291
  },
  {
    "rank": 47,
    "name": "인천행운방",
    "win_count": 2,
    "address": "인천 부평구 광장로 16",
    "lat": 37.4905994,
    "lng": 126.7243935
  },
  {
    "rank": 48,
    "name": "의정부복권",
    "win_count": 2,
    "address": "경기 의정부시 시민로 80",
    "lat": 37.7379775,
    "lng": 127.0444076
  },
  {
    "rank": 49,
    "name": "천호행운복권",
    "win_count": 2,
    "address": "서울 강동구 천호대로 1035",
    "lat": 37.5388002,
    "lng": 127.1232006
  },
  {
    "rank": 50,
    "name": "수지로또",
    "win_count": 2,
    "address": "경기 용인시 수지구 포은대로 460",
    "lat": 37.2992825,
    "lng": 127.0652956
  }
]